[{"name":"Radisson Blu Hotel, Berlin","latitude":52.51956080000001,"longitude":13.402857,"address":"Karl-Liebknecht-Straße 3, Berlin","photo":"https://lh3.googleusercontent.com/p/AF1QipPSRRfhHn7wE_Xxuiil2bzr5VRTFxz9DvRuDPD-=s1600-w1200"},{"name":"Park Inn by Radisson","latitude":52.5230261,"longitude":13.4123146,"address":"Alexanderplatz 7, Berlin","photo":"https://lh3.googleusercontent.com/p/AF1QipMMJdtqGF790TsPnfonYjvIfcO_eURSSXgkK71L=s1600-w1200"},{"name":"Soho House Berlin","latitude":52.5276035,"longitude":13.4154727,"address":"Torstraße 1, Berlin","photo":"https://lh3.googleusercontent.com/p/AF1QipOCPo5tKVU0HEsWfvdYHHX73G_uHNb8QQcPtN03=s1600-w1200"},{"name":"Cosmo Hotel Berlin Mitte","latitude":52.51169119999999,"longitude":13.4013782,"address":"Spittelmarkt 13, Berlin","photo":"https://lh3.googleusercontent.com/p/AF1QipNm-bqeRyGnQSWZFdRXp7CmkQbzQAA-uyTBZkBd=s1600-w1200"},{"name":"Adina Apartment Hotel Berlin Hackescher Markt","latitude":52.5222186,"longitude":13.404107,"address":"An der Spandauer Brücke 11, Berlin","photo":"https://lh3.googleusercontent.com/p/AF1QipOe6DCd0pSNqc1nIq1R_nxD3GBJiyPVO4jyfdwm=s1600-w1200"},{"name":"Park Plaza Wallstreet Berlin Mitte","latitude":52.5115347,"longitude":13.4077289,"address":"Wallstraße 23-24, Berlin","photo":"https://lh3.googleusercontent.com/p/AF1QipPT1x5qiqQ1VJIVKQmRUvCwtl8QixNmZxN6rDp6=s1600-w1200"},{"name":"Hotel Berlin Gendarmenmarkt","latitude":52.51449,"longitude":13.39091,"address":"Charlottenstraße 50-52, Berlin","photo":"https://lh3.googleusercontent.com/p/AF1QipNL77oZ2fWwnmUFkJrp0jVCoFhcuuZYNF6mO6OR=s1600-w1200"},{"name":"Grill Royal","latitude":52.5225601,"longitude":13.388382,"address":"Friedrichstraße 105b, Berlin","photo":"https://lh3.googleusercontent.com/p/AF1QipPBQfEOHfvV9b5_m-0VRXCWUUnQOjoIQPd-49ho=s1600-w1200"},{"name":"Vapiano","latitude":52.5178828,"longitude":13.38791,"address":"Mittelstraße 51-52, Berlin","photo":"https://lh3.googleusercontent.com/p/AF1QipMpPJSwxUzVXrrnSZ5LQQV8EiyD1YsfB8scbpTF=s1600-w1200"},{"name":"Zur letzten Instanz","latitude":52.517369,"longitude":13.4137945,"address":"Waisenstraße 14-16, Berlin","photo":"https://lh3.googleusercontent.com/p/AF1QipPXcJpZ7Xvbz1w2-eYYS7XW5srPe1DNPWUrolVU=s1600-w1200"},{"name":"Cookies Cream","latitude":52.51565410000001,"longitude":13.3873719,"address":"Behrenstraße 55, Berlin","photo":"https://lh3.googleusercontent.com/p/AF1QipNKU4IEeFS3dyiCFKVSk9D3sxGCQjYxzxq1hETW=s1600-w1200"},{"name":"Hofbräu Wirtshaus Berlin","latitude":52.52456240000001,"longitude":13.4138463,"address":"Karl-Liebknecht-Straße 30, Berlin","photo":"https://lh3.googleusercontent.com/p/AF1QipPjuCo1oSt1M7cw0_InxHgbVcEYm8IuMM3h2DpV=s1600-w1200"},{"name":"12 Apostel Berlin Mitte","latitude":52.5206756,"longitude":13.3942122,"address":"S-Bahnbögen 177-180, Georgenstraße 2, Berlin","photo":"https://lh3.googleusercontent.com/p/AF1QipPlGOkpHIJkzYNWhMMRHtjWWJYf9j0gJupCG6qX=s1600-w500"},{"name":"Borchardt","latitude":52.5149969,"longitude":13.3904046,"address":"Französische Straße 47, Berlin","photo":"https://lh3.googleusercontent.com/p/AF1QipNsaF61hE7yPhPUeouapnZQtGMgBj3VtOYiLM6y=s1600-w1200"},{"name":"Augustiner am Gendarmenmarkt","latitude":52.51385089999999,"longitude":13.3910883,"address":"Charlottenstraße 55, Berlin","photo":"https://lh3.googleusercontent.com/p/AF1QipOFRzYR0InTgKK5nnTHKpJj4zGrx1ux-ezsbM6L=s1600-w1200"},{"name":"Spreegold Store ROS02","latitude":52.5229784,"longitude":13.4091459,"address":"Rosa-Luxemburg-Straße 2, Berlin","photo":"https://lh3.googleusercontent.com/p/AF1QipP9pv9rLEgnnc-oR4vNXs9V8RHh6WiD3YKbGndA=s1600-w1200"},{"name":"Nola","latitude":52.532349,"longitude":13.4015994,"address":"Veteranenstraße 9, Berlin","photo":"https://lh3.googleusercontent.com/p/AF1QipMWGQ0q68MJYyl8ADGrv92PalocO8KyuvAwT--I=s1600-w1200"},{"name":"Zur Gerichtslaube","latitude":52.5172341,"longitude":13.406373,"address":"Poststraße 28, Berlin","photo":"https://lh3.googleusercontent.com/p/AF1QipM81Yne1flWmphf9oI7cFgbY1IMcsso2PKPtfQY=s1600-w1200"},{"name":"Monsieur Vuong","latitude":52.5266538,"longitude":13.4079523,"address":"Alte Schönhauser Straße 46, Berlin","photo":"https://lh3.googleusercontent.com/p/AF1QipOX3w6tPSNe3jrnxhj3jlu28X-W6vsfS-Cpufmw=s1600-w1200"},{"name":"Brauhaus Georgbræu","latitude":52.5165548,"longitude":13.4055038,"address":"Spreeufer 4, Berlin","photo":"https://lh3.googleusercontent.com/p/AF1QipOnquAmQDxZkaLAOyapuPxkKF2182j0xf-yX055=s1600-w1200"}]
