[{"name":"Iberostar Las Letras Gran Vía","latitude":40.4195646,"longitude":-3.699581499999999,"address":"Calle Gran Vía, 11, Madrid","photo":"https://lh3.googleusercontent.com/p/AF1QipMkWZZg7AVz5AAE29twUApC7PaioYN8kaAF1jqo=s1600-w1200"},{"name":"Cervecería Restaurante Krüger","latitude":40.4248954,"longitude":-3.7129334,"address":"Calle de la Princesa, 5, Madrid","photo":"https://lh3.googleusercontent.com/p/AF1QipMiHd4EfVdQ5iEou7UKK0dD92e-Mev5_85Qt6AO=s1600-w1200"},{"name":"La Chulapa de Alcalá","latitude":40.41852529999999,"longitude":-3.6980617,"address":"Calle de Alcalá, 35, Madrid","photo":"https://lh3.googleusercontent.com/p/AF1QipPbvaLv5FGqTummFL9dmkyIQFkU-hJ_W0uPJ6J8=s1600-w1200"},{"name":"Corral de la Morería","latitude":40.41268469999999,"longitude":-3.714164099999999,"address":"Calle de la Moreria, 17, Madrid","photo":"https://lh3.googleusercontent.com/p/AF1QipPWg0UeOdzmfJG5NO8Zvz7rPGSzLh57srVebYVc=s1600-w1200"},{"name":"Taberna del Alabardero de Madrid","latitude":40.4186021,"longitude":-3.710921599999999,"address":"Calle de Felipe V, 6, Madrid","photo":"https://lh3.googleusercontent.com/p/AF1QipOdOff8GjHxc05tmjD_Nnmf_Mh-02E0vs2djgcH=s1600-w1200"},{"name":"Casa de Asturias","latitude":40.4081497,"longitude":-3.699811,"address":"Calle de Argumosa, 4, Madrid","photo":"https://lh3.googleusercontent.com/p/AF1QipOjm9TMJlC6OM7uU-HAmSoBY98ztcjIuPNzsexe=s1600-w1200"},{"name":"Hotel Intur Palacio San Martín","latitude":40.4188575,"longitude":-3.7065207,"address":"Plaza de San Martín, 5, Madrid","photo":"https://lh3.googleusercontent.com/p/AF1QipMVdPuVaPb32r1B6GwfZmTJh9jaLvc6TaOZhWto=s1600-w1200"},{"name":"Posada del León de Oro","latitude":40.4131927,"longitude":-3.708539400000001,"address":"Calle de la Cava Baja, 12, Madrid","photo":"https://lh3.googleusercontent.com/p/AF1QipOTv-28eg967qRnRow_cIcrTq8ejtMCIce8bJGr=s1600-w1200"},{"name":"Las Mañanitas","latitude":40.4266212,"longitude":-3.7012962,"address":"Calle de Fuencarral, 82, Madrid","photo":"https://lh3.googleusercontent.com/p/AF1QipMp_RdVVN11GVdWjZNJMHYv_3EZQT4bvmJfDeO3=s1600-w1200"},{"name":"Petit Comité Chueca Centro - Restaurante en Madrid","latitude":40.4202844,"longitude":-3.6998374,"address":"Calle de la Reina, 15, Madrid","photo":"https://lh3.googleusercontent.com/p/AF1QipN9RKj18BvVMGZ4vRpDb-9MMylxAOKO6kvDwBJ0=s1600-w669"},{"name":"La Esquina Del Real","latitude":40.41736900000001,"longitude":-3.710359000000001,"address":"Calle de la Amnistía, 4, Madrid","photo":"https://lh3.googleusercontent.com/p/AF1QipM0QFP5kNAo7uoz_Az8AUXwYIqp7tNlO_JiDis7=s1600-w1200"},{"name":"bolivar","latitude":40.4289284,"longitude":-3.705390899999999,"address":"Calle de Manuela Malasaña, 28, Madrid","photo":"https://lh3.googleusercontent.com/p/AF1QipP0pzUgTwJeHIxsNZiaQTYvpfl00HyZOaQb0hp6=s1600-w1200"},{"name":"Cómo me lo Como","latitude":40.4237715,"longitude":-3.7062896,"address":"Calle de Andrés Borrego, 16, Madrid","photo":"https://lh3.googleusercontent.com/p/AF1QipOEtmH1sbpHxUx0F8Kdsix92l-GX-8Ci6FTfjzt=s1600-w600"},{"name":"Restaurante Plato & Placer","latitude":40.4130233,"longitude":-3.7132383,"address":"Calle de la Moreria, 9, Madrid","photo":"https://lh3.googleusercontent.com/p/AF1QipPgOdY1693UVruzFPO_rAs1XM6ZPVs8IlF32Wpg=s1600-w1200"},{"name":"Taberna de la Daniela Medinaceli","latitude":40.4141667,"longitude":-3.6958333,"address":"Plaza Jesús, 7, Madrid","photo":"https://lh3.googleusercontent.com/p/AF1QipMC08VXECq3qmdyOxBlJTIRCWozAUGg6w5XQMMp=s1600-w1200"},{"name":"Miyama Restaurant","latitude":40.42222219999999,"longitude":-3.71,"address":"Calle de la Flor Baja, 5, Madrid","photo":"https://lh3.googleusercontent.com/p/AF1QipPyVzCP1PDcu5AR2akIFwTZYGkfAi0Wy0OkJi-W=s1600-w1200"},{"name":"Lamucca de Prado","latitude":40.4147901,"longitude":-3.698641800000001,"address":"Calle del Prado, 16, Madrid","photo":"https://lh3.googleusercontent.com/p/AF1QipO9FJPITB3x5uJy2G6IWC1FALUU-zq1lTLmpv_t=s1600-w1200"},{"name":"Mercado de la Reina","latitude":40.41962899999999,"longitude":-3.6987696,"address":"Calle Gran Vía, 12, Madrid","photo":"https://lh3.googleusercontent.com/p/AF1QipOAt9j-WkDJCY9jmQGm-frx4BIlgyCkLrZhaznB=s1600-w1200"},{"name":"Sagaretxe","latitude":40.434241,"longitude":-3.701002,"address":"Calle Eloy Gonzalo, 26, Madrid","photo":"https://lh3.googleusercontent.com/p/AF1QipO0A75vl_EDEcoGXeVrbM55vnbkry6XgHkxRa7y=s1600-w1200"},{"name":"Malacatín","latitude":40.4103131,"longitude":-3.7076678,"address":"Calle de la Ruda, 5, Madrid","photo":"https://lh3.googleusercontent.com/p/AF1QipNVkBzWfbCKoU3p9_SzlxIjkH3WhvypnRXDqDh2=s1600-w1200"}]
