[{"name":"Hotel ibis Milano Centro","latitude":45.47839,"longitude":9.2016908,"address":"Via Camillo Finocchiaro Aprile, 2, Milano","photo":"https://lh3.googleusercontent.com/p/AF1QipMO57HItX1EdmGmzlH3NRn0Fu0rQAQxEQ9ZwrL4=s1600-w1200"},{"name":"Rosa Grand","latitude":45.4638223,"longitude":9.194027300000002,"address":"Piazza Fontana, 3, Milano","photo":"https://lh3.googleusercontent.com/p/AF1QipOqKuIjQCf8kqlZ6V_CnHkt6F_06O-fQzlr1hpu=s1600-w511"},{"name":"Hotel Milano Scala","latitude":45.46890579999999,"longitude":9.186847099999998,"address":"Via dell'Orso, 7, Milano","photo":"https://lh3.googleusercontent.com/p/AF1QipMKtnj-8D_uZMytPzSJbPBR1nagFb5fuIot23VD=s1600-w1200"},{"name":"Ristorante Indiano The Dhaba","latitude":45.47699979999999,"longitude":9.202225000000002,"address":"Via Panfilo Castaldi, 22, Milano","photo":"https://lh3.googleusercontent.com/p/AF1QipOBusk1PlCf9LMGByD0SSkI2GLtFijzZ2jqZauH=s1600-w1200"},{"name":"UNAHOTELS Cusani Milano","latitude":45.4685546,"longitude":9.1834004,"address":"Via Cusani, 13, Milano","photo":"https://lh3.googleusercontent.com/p/AF1QipMyB6jYRMFXv-0N0TlzY9SM7H3iEKGsYsT5B0WE=s1600-w1200"},{"name":"Ristorante Papà Francesco","latitude":45.46623200000001,"longitude":9.190525000000003,"address":"Via Tommaso Marino, 5, Milano","photo":"https://lh3.googleusercontent.com/p/AF1QipOGH5SFsRMQgg095rkWDZbIJkZvilFI2eHA_YaE=s1600-w1200"},{"name":"Grand Hotel et de Milan","latitude":45.4699224,"longitude":9.192502899999997,"address":"Via Alessandro Manzoni, 29, Milano","photo":"https://lh3.googleusercontent.com/p/AF1QipPMTmG_tdGnUmv5rQJvDKKTlj9Xm7iDqdrh5_j3=s1600-w1200"},{"name":"UNAHOTELS Mediterraneo Milano","latitude":45.4517481,"longitude":9.205864599999998,"address":"Via Lodovico Muratori, 14, Milano","photo":"https://lh3.googleusercontent.com/p/AF1QipOIrqq4WtHlrOLfUHQlOGth31vilIYSFSqVcimI=s1600-w1200"},{"name":"Château Monfort","latitude":45.4683333,"longitude":9.2072222,"address":"Corso Concordia, 1, Milano","photo":"https://lh3.googleusercontent.com/p/AF1QipNllxjbNRNeWbZadMY8q2M-8HKSUGeYddLOiA9t=s1600-w1200"},{"name":"Sushi etc.","latitude":45.47336850000001,"longitude":9.1956078,"address":"Piazza Cavour, 7, Milano","photo":"https://lh3.googleusercontent.com/p/AF1QipNywEssxW0m9ASfvG5-OyTUEq1QKoHdFkWHDnxw=s1600-w1200"},{"name":"California Bakery","latitude":45.4767309,"longitude":9.184025900000002,"address":"Corso Garibaldi, 89, Milano","photo":"https://lh3.googleusercontent.com/p/AF1QipPolaIkq30wM7tlJoWhwB2kM13N8iRoQmWUblKa=s1600-w1200"},{"name":"Antica Locanda Solferino","latitude":45.4781605,"longitude":9.1884523,"address":"Via Castelfidardo, 2, Milano","photo":"https://lh3.googleusercontent.com/p/AF1QipO4vzfMGzJ_hekx_DavFlEgxmKJVPMCfxj_aVM=s1600-w1200"},{"name":"Old Fashion Club","latitude":45.4727971,"longitude":9.173582800000002,"address":"Palazzo dell'Arte, Viale Luigi Camoens, Milano","photo":"https://lh3.googleusercontent.com/p/AF1QipMGK3e4h9SJ3W1SXBEu7P3PwN6m8OuISsf1v1Aa=s1600-w1200"},{"name":"San Martino bistrot","latitude":45.453181,"longitude":9.1883959,"address":"Via San Martino, 8, Milano","photo":"https://lh3.googleusercontent.com/p/AF1QipMkWB1tZ344xiTnC3ypYhinipsEO2N-pgKM5GKn=s1600-w1200"},{"name":"Joia","latitude":45.477141,"longitude":9.201855,"address":"Via Panfilo Castaldi, 18, Milano","photo":"https://lh3.googleusercontent.com/p/AF1QipPxYvY8_P5ptZmNsjn2OtMOPOLwIy1-HcAbNF_F=s1600-w1200"},{"name":"Restaurant Pizzeria Maruzzella","latitude":45.4753104,"longitude":9.2048747,"address":"Piazza Guglielmo Oberdan, 3, Milano","photo":"https://lh3.googleusercontent.com/p/AF1QipNN1HBNJCUeiCsjceW7Q00PduyhpJHI02HM5nub=s1600-w1200"},{"name":"Flash","latitude":45.4623825,"longitude":9.1940276,"address":"Via Bergamini, 1, Milano","photo":"https://lh3.googleusercontent.com/p/AF1QipMjmd1g4h2B4wcSqaQA-9ng0mkeKXlSzP7au6cg=s1600-w1200"},{"name":"Peck","latitude":45.4635189,"longitude":9.1869577,"address":"Via Spadari, 9, Milano","photo":"https://lh3.googleusercontent.com/p/AF1QipO2W0JkOcPkCqI-Ak5EnSsbhQccv6vv6wrRlPaI=s1600-w1200"},{"name":"Cumino Bistrot","latitude":45.455762,"longitude":9.174973999999999,"address":"Via Cicco Simonetta, 17, Milano","photo":"https://lh3.googleusercontent.com/p/AF1QipM2oBST46I6jAqIVImNY1XjN9V7NcdqzOyul6rA=s1600-w1200"},{"name":"Pandenus","latitude":45.4784583,"longitude":9.1847286,"address":"Largo la Foppa, 5, Milano","photo":"https://lh3.googleusercontent.com/p/AF1QipMJvhKuGuBJKdeCbBK_bVEjQhnDHN9whIizeUNi=s1600-w1200"}]
