[{"name":"UNAHOTELS Decò","latitude":41.8998425,"longitude":12.499711,"address":"Via Giovanni Amendola, 57, Roma","photo":"https://lh3.googleusercontent.com/p/AF1QipN_QLGgD4fFa8WESt0W8AN7QzCaaVIBB0pfN1Cb=s1600-w1200"},{"name":"RoYaL Art Cafè Roma","latitude":41.8899689,"longitude":12.4942703,"address":"Piazza del Colosseo, 1, Roma","photo":"https://lh3.googleusercontent.com/p/AF1QipMZeJqwYRDHakuUqkczPZrZaO9jGcOyY9J1wJzg=s1600-w1200"},{"name":"Baglioni Hotel Regina - Rome","latitude":41.90707769999999,"longitude":12.4898787,"address":"Via Vittorio Veneto, 72, Roma","photo":"https://lh3.googleusercontent.com/p/AF1QipNv5IxhRHVt04wLQr0-N8yIe5cgLU2EDm47Y5KD=s1600-w1200"},{"name":"Hotel Rex","latitude":41.90007019999999,"longitude":12.4967318,"address":"Via Torino, 149, Roma","photo":"https://lh3.googleusercontent.com/p/AF1QipOQL9Lj1HzRAHc_8NI8BfpjDwhJEaoCC9_dnywm=s1600-w1200"},{"name":"Hotel Splendide Royal","latitude":41.9080556,"longitude":12.4869444,"address":"Via di Porta Pinciana, 14, Roma","photo":"https://lh3.googleusercontent.com/p/AF1QipNxwj7kYCGLNDK8XsW-ofvSPK0ZFJcpF6eJixYF=s1600-w1200"},{"name":"Hotel d'Inghilterra Roma - Starhotels Collezione","latitude":41.904711,"longitude":12.4805985,"address":"Via Bocca di Leone, 14, Roma","photo":"https://lh3.googleusercontent.com/p/AF1QipOVmW6BSofCVrqgXfu1LUyxNa2BMmeFFhZW_-59=s1600-w1200"},{"name":"Radisson Blu es. Hotel, Rome","latitude":41.8965782,"longitude":12.5061887,"address":"Via Filippo Turati, 171, Roma","photo":"https://lh3.googleusercontent.com/p/AF1QipMUqlkuu4xhaVhDwIFjPZuAedsGmpm2U9BZ9MK-=s1600-w1200"},{"name":"Hotel Oxford","latitude":41.90924059999999,"longitude":12.4962026,"address":"Via Boncompagni, 89, Roma","photo":"https://lh3.googleusercontent.com/p/AF1QipPYvQHIHXowjfRX8edI0trC6mJIvpl0Q2mfH_MG=s1600-w1200"},{"name":"Bettoja Hotel Mediterraneo","latitude":41.90031,"longitude":12.4988757,"address":"Via Cavour, 15, Roma","photo":"https://lh3.googleusercontent.com/p/AF1QipMrYF_UfKunGJTulFoq0vJZ08rgy_LF30nZrjL7=s1600-w1200"},{"name":"Sofitel Roma Villa Borghese","latitude":41.9076212,"longitude":12.4866606,"address":"Via Lombardia, 47, Roma","photo":"https://lh3.googleusercontent.com/p/AF1QipONiIzIIg5dujymsXGd_6Fv6eKisOw7TwyIyTXY=s1600-w1200"},{"name":"Hotel Majestic","latitude":41.9055571,"longitude":12.4878698,"address":"Via Vittorio Veneto, 50, Roma","photo":"https://lh3.googleusercontent.com/p/AF1QipNlX1PJdQPBLG_YKobazoU13ATjOOh0AL5z0HUX=s1600-w1200"},{"name":"Hotel Savoy Roma","latitude":41.9073934,"longitude":12.4893418,"address":"Via Ludovisi, 15, Roma","photo":"https://lh3.googleusercontent.com/p/AF1QipOTKkEyZXokZQgcB2zc0LAFRQ9133jcSwCMwKdk=s1600-w1200"},{"name":"Ambassadors Hotel Palace di Roma","latitude":41.9063295,"longitude":12.4896297,"address":"Via Vittorio Veneto, 62, Roma","photo":"https://lh3.googleusercontent.com/p/AF1QipOv-uNmKCV1rH932FG_X85soNs3gKfBIBLhzhyY=s1600-w1200"},{"name":"Parco dei Principi Grand Hotel & SPA","latitude":41.91778559999999,"longitude":12.4916811,"address":"Via Gerolamo Frescobaldi, 5, Roma","photo":"https://lh3.googleusercontent.com/p/AF1QipPPcHpnaL9kOSUR01KFuNuvhjo3vF3FoYIyc3oz=s1600-w1200"},{"name":"Generator Rome","latitude":41.8954915,"longitude":12.505668,"address":"Via Principe Amedeo, 251, Roma","photo":"https://lh3.googleusercontent.com/p/AF1QipPAQvgX-7bzL7Xq9k5C1m2AwWmpoZVcG3RoysLD=s1600-w1200"},{"name":"Machiavelli Club","latitude":41.8930556,"longitude":12.5038889,"address":"Via Machiavelli, 49, Roma","photo":"https://lh3.googleusercontent.com/p/AF1QipOgxh722e9HKmtBzjX7PouabbKRkMAV-Yec5LnR=s1600-w1200"},{"name":"Taverna Barberini","latitude":41.90268940000001,"longitude":12.4893217,"address":"Via delle Quattro Fontane, 160, Roma","photo":"https://lh3.googleusercontent.com/p/AF1QipOqo7fRiCigmxDgjXBljQ6d6xxQG4gpD4IJdOf9=s1600-w1200"},{"name":"Residenza di Ripetta","latitude":41.9085298,"longitude":12.4755444,"address":"Via di Ripetta, 231, Roma","photo":"https://lh3.googleusercontent.com/p/AF1QipNhIhf1JXfCdBMnid1Waxctsm2j6Tu2gabdP5dQ=s1600-w1200"},{"name":"Os Club","latitude":41.8934078,"longitude":12.4983189,"address":"Via delle Terme di Traiano, 4/A, Roma","photo":"https://lh3.googleusercontent.com/p/AF1QipOl3KpRsKe94OtV7FkjRUW0MCC9XgIaQgZoktI=s1600-w640"},{"name":"L'Antica Birreria Peroni","latitude":41.8987803,"longitude":12.4824441,"address":"Via di San Marcello, 19, Roma","photo":"https://lh3.googleusercontent.com/p/AF1QipOE9AMnSacwnxinbRlW1VCLKKGtzZb1JubKyiG0=s1600-w1200"}]
